     2.11           OBSERVATION DATA    M (MIXED)           RINEX VERSION / TYPE
teqc  2017Sep15                         20180427 10:55:12UTCPGM / RUN BY / DATE
OSX ker:10.11.6|Core i5|gcc 4.3 -m64|OSX ker:10.10+|=+      COMMENT
teqc  2015Nov6                          20170223 14:15:08UTCCOMMENT
Linux 2.4.21-27.ELsmp|Opteron|gcc -static|Linux x86_64|=+   COMMENT
teqc  2015Nov6                          20170223 13:37:06UTCCOMMENT
BIT 2 OF LLI FLAGS DATA COLLECTED UNDER A/S CONDITION       COMMENT
REF2                                                        MARKER NAME
REF1                                                        MARKER NUMBER
Miquel Garcia       ROKUBUN                                 OBSERVER / AGENCY
360237              AsteRx-U UHF        4.1.4               REC # / TYPE / VERS
10546               PolaNt-x MF                             ANT # / TYPE
        0.0000        0.0000        0.0000                  APPROX POSITION XYZ
        0.0000        0.0000        0.0000                  ANTENNA: DELTA H/E/N
     1     1                                                WAVELENGTH FACT L1/2
     7    L1    L2    C1    P1    P2    S1    S2            # / TYPES OF OBSERV
     1.0000                                                 INTERVAL
 SNR is mapped to RINEX snr flag value [0-9]                COMMENT
  L1 & L2: min(max(int(snr_dBHz/6), 0), 9)                  COMMENT
    17                                                      LEAP SECONDS
Forced Modulo Decimation to 1 seconds                       COMMENT
teqc edited: all GLONASS satellites excluded                COMMENT
teqc edited: all SBAS satellites excluded                   COMMENT
  2017     2    22    10    22   37.0000000     GPS         TIME OF FIRST OBS
                                                            END OF HEADER
 17  2 22 10 26  0.0000000  0  9G02G28G06G05G30G09G07G13G20
 117423284.630 7  91498651.97245  22344908.716    22344907.706    22344905.812
        46.250          34.750
 126102068.548 7  98261360.87944  23996424.484    23996423.626    23996425.660
        42.750          27.000
 126281939.558 7  98401525.64444  24030655.730    24030655.274    24030660.864
        42.000          28.250
 111752274.269 8  87079691.01146  21265750.652    21265750.348    21265749.570
        51.000          40.500
 107534114.593 9  83792825.72047  20463061.845    20463061.108    20463063.032
        54.250          47.000
 119806888.670 8  93356024.04946  22798493.560    22798493.060    22798495.939
        48.250          37.000
 112425062.408 8  87603941.80446  21393778.368    21393777.890    21393777.375
        51.750          41.250
 123519826.573 7  96249218.00844  23505041.019    23505040.510    23505040.927
        43.750          27.750
 132490580.635 6 103239411.32243  25212120.169    25212119.289    25212119.332
        37.000          18.500
 17  2 22 10 26  1.0000000  0  9G02G28G06G05G30G09G07G13G20
 117424478.121 7  91499581.96345  22345135.806    22345134.796    22345132.921
        46.500          34.750
 126098396.049 7  98258499.19644  23995725.612    23995724.758    23995726.790
        42.750          27.000
 126284842.398 7  98403787.59344  24031208.297    24031207.841    24031213.262
        42.000          28.500
 111749717.540 8  87077698.75646  21265264.120    21265263.816    21265263.044
        51.000          40.500
 107532754.358 9  83791765.79547  20462802.983    20462802.246    20462804.188
        54.250          47.000
 119808757.367 8  93357480.17546  22798849.195    22798848.695    22798851.545
        48.250          37.250
 112426164.796 8  87604800.80746  21393988.147    21393987.674    21393987.152
        51.750          41.250
 123516482.107 7  96246611.93544  23504404.627    23504404.118    23504404.499
        43.750          28.000
 132486355.209 6 103236118.78743  25211315.987    25211315.102    25211315.259
        37.250          18.750
 17  2 22 10 26  2.0000000  0  9G02G28G06G05G30G09G07G13G20
 117425671.714 7  91500512.03445  22345362.896    22345361.886    22345360.062
        46.500          34.750
 126094723.267 7  98255637.29244  23995026.606    23995025.752    23995027.893
        42.500          27.000
 126287744.906 7  98406049.28444  24031760.582    24031760.126    24031765.579
        42.000          28.500
 111747160.864 8  87075706.54046  21264777.551    21264777.247    21264776.523
        51.000          40.500
 107531394.327 9  83790706.03147  20462544.172    20462543.435    20462545.383
        54.250          47.000
 119810625.824 8  93358936.11346  22799204.845    22799204.345    22799207.093
        48.250          37.000
 112427267.254 8  87605659.86446  21394197.915    21394197.437    21394196.934
        51.750          41.250
 123513137.412 7  96244005.67944  23503768.130    23503767.621    23503768.053
        43.750          28.000
 132482129.419 6 103232825.95843  25210511.652    25210510.763    25210511.096
        37.250          18.500
 17  2 22 10 26  3.0000000  0  9G02G28G06G05G30G09G07G13G20
 117426865.861 7  91501442.53945  22345590.216    22345589.206    22345587.332
        46.500          35.000
 126091050.664 7  98252775.52644  23994327.719    23994326.861    23994329.032
        42.750          27.250
 126290647.576 7  98408311.10244  24032312.933    24032312.477    24032317.936
        42.000          28.500
 111744604.694 8  87073714.71946  21264291.072    21264290.768    21264290.095
        51.000          40.750
 107530034.975 9  83789646.79647  20462285.502    20462284.765    20462286.714
        54.250          47.000
 119812494.487 8  93360392.21346  22799560.514    22799560.018    22799562.676
        48.500          37.250
 112428370.229 8  87606519.32646  21394407.777    21394407.299    21394406.819
        52.000          41.250
 123509792.932 7  96241399.58544  23503131.687    23503131.178    23503131.638
        43.750          28.000
 132477903.778 6 103229533.23143  25209707.578    25209706.684    25209706.914
        37.500          18.750
 17  2 22 10 26  4.0000000  0  9G02G28G06G05G30G09G07G13G20
 117428060.352 7  91502373.30645  22345817.584    22345816.574    22345814.647
        46.500          34.750
 126087378.018 7  98249913.72844  23993628.864    23993628.006    23993630.149
        42.500          27.000
 126293550.165 7  98410572.85644  24032865.252    24032864.796    24032870.266
        42.000          28.750
 111742048.824 8  87071723.13346  21263804.707    21263804.403    21263803.726
        51.000          40.750
 107528676.082 9  83788587.91847  20462026.851    20462026.118    20462028.124
        54.250          47.000
 119814363.153 8  93361848.31546  22799916.139    22799915.643    22799918.277
        48.500          37.250
 112429473.523 8  87607379.03446  21394617.756    21394617.283    21394616.770
        51.750          41.250
 123506448.470 7  96238793.51444  23502495.217    23502494.708    23502495.223
        43.750          28.000
 132473678.035 6 103226240.45243  25208903.190    25208902.296    25208902.796
        37.750          19.000
 17  2 22 10 26  5.0000000  0  9G02G28G06G05G30G09G07G13G20
 117429254.734 7  91503303.99445  22346044.829    22346043.819    22346041.953
        46.500          35.000
 126083704.903 7  98247051.56044  23992929.838    23992928.980    23992931.198
        42.500          27.000
 126296452.236 7  98412834.20744  24033417.608    24033417.148    24033422.476
        42.000          28.750
 111739492.798 8  87069731.42446  21263318.295    21263317.991    21263317.330
        51.000          40.750
 107527317.199 9  83787529.04847  20461768.261    20461767.524    20461769.539
        54.250          47.000
 119816231.376 8  93363304.07246  22800271.692    22800271.192    22800273.794
        48.500          37.250
 112430576.669 8  87608238.63046  21394827.691    21394827.218    21394826.695
        51.750          41.500
 123503103.551 7  96236187.08844  23501858.654    23501858.149    23501858.688
        44.000          28.000
 132469451.751 6 103222947.25043  25208099.141    25208098.247    25208098.615
        38.000          19.250
 17  2 22 10 26  6.0000000  0  9G02G28G06G05G30G09G07G13G20
 117430449.778 7  91504235.19445  22346272.320    22346271.310    22346269.357
        46.500          35.000
 126080032.059 7  98244189.61344  23992230.789    23992229.931    23992232.311
        42.500          27.000
 126299354.561 7  98415095.75144  24033969.869    24033969.409    24033974.757
        42.000          28.750
 111736937.392 8  87067740.19646  21262832.003    21262831.699    21262831.045
        51.250          40.750
 107525959.093 9  83786470.78447  20461509.803    20461509.070    20461511.097
        54.500          47.000
 119818099.913 8  93364760.07346  22800627.255    22800626.755    22800629.359
        48.500          37.250
 112431680.436 8  87609098.70646  21395037.760    21395037.287    21395036.732
        52.000          41.500
 123499758.981 7  96233580.92844  23501222.147    23501221.642    23501222.229
        44.000          28.000
 132465225.681 6 103219654.20943  25207295.298    25207294.400    25207294.470
        38.000          19.000
 17  2 22 10 26  7.0000000  0  9G02G28G06G05G30G09G07G13G20
 117431645.297 7  91505166.76845  22346499.883    22346498.873    22346496.851
        46.250          35.000
 126076359.299 7  98241327.72544  23991531.799    23991530.941    23991533.427
        42.500          27.000
 126302256.933 7  98417357.34044  24034522.227    24034521.771    24034527.083
        42.000          28.750
 111734382.397 8  87065749.29046  21262345.866    21262345.562    21262344.841
        51.000          40.750
 107524601.574 9  83785412.97647  20461251.503    20461250.770    20461252.772
        54.250          47.000
 119819968.582 8  93366216.17646  22800982.927    22800982.427    22800984.965
        48.500          37.250
 112432784.638 8  87609959.12246  21395247.903    21395247.425    21395246.853
        51.750          41.500
 123496414.524 7  96230974.85944  23500585.812    23500585.307    23500585.800
        44.000          28.000
 132460999.678 6 103216361.20543  25206491.231    25206490.328    25206490.315
        38.000          19.250
 17  2 22 10 26  8.0000000  0  9G02G28G06G05G30G09G07G13G20
 117432840.942 7  91506098.43945  22346727.320    22346726.314    22346724.376
        46.250          35.000
 126072686.316 7  98238465.66444  23990832.945    23990832.082    23990834.495
        42.500          26.750
 126305159.032 6  98419618.70644  24035074.443    24035073.987    24035079.342
        41.750          28.750
 111731827.479 8  87063758.44846  21261859.675    21261859.371    21261858.655
        51.000          40.750
 107523244.295 9  83784355.35847  20460993.263    20460992.526    20460994.495
        54.250          47.000
 119821837.056 8  93367672.13146  22801338.422    22801337.917    22801340.526
        48.250          37.250
 112433888.928 8  87610819.60746  21395458.028    21395457.550    21395456.997
        51.750          41.250
 123493069.876 7  96228368.63844  23499949.412    23499948.903    23499949.310
        43.750          28.000
 132456773.360 6 103213067.97243  25205686.867    25205685.960    25205686.094
        38.000          19.500
 17  2 22 10 26  9.0000000  0  9G02G28G06G05G30G09G07G13G20
 117434036.984 7  91507030.42145  22346954.875    22346953.865    22346951.995
        46.250          34.750
 126069013.350 7  98235603.61844  23990133.988    23990133.130    23990135.558
        42.500          27.000
 126308061.122 7  98421880.07444  24035626.795    24035626.339    24035631.623
        42.000          28.750
 111729272.923 8  87061767.88446  21261373.587    21261373.283    21261372.541
        51.000          40.750
 107521887.541 9  83783298.14647  20460735.090    20460734.353    20460736.317
        54.250          47.000
 119823705.582 8  93369128.12546  22801693.989    22801693.484    22801696.092
        48.250          37.250
 112434993.587 8  87611680.37946  21395668.229    21395667.751    21395667.208
        51.750          41.250
 123489725.269 7  96225762.45444  23499312.988    23499312.479    23499312.828
        44.000          28.000
 132452547.001 6 103209774.70843  25204882.454    25204881.538    25204881.877
        38.250          20.000
 17  2 22 10 26 10.0000000  0  9G02G28G06G05G30G09G07G13G20
 117435233.698 7  91507962.92245  22347182.587    22347181.577    22347179.739
        46.500          34.750
 126065340.673 7  98232741.79544  23989435.029    23989434.166    23989436.684
        42.750          27.000
 126310963.464 7  98424141.63744  24036179.019    24036178.563    24036183.958
        42.250          29.000
 111726718.989 8  87059777.80446  21260887.563    21260887.259    21260886.547
        51.250          40.750
 107520531.572 9  83782241.54747  20460477.072    20460476.339    20460478.287
        54.250          47.000
 119825574.439 8  93370584.37546  22802049.590    22802049.085    22802051.733
        48.250          37.250
 112436098.880 8  87612541.64546  21395878.549    21395878.076    21395877.540
        51.750          41.250
 123486381.037 7  96223156.55744  23498676.589    23498676.080    23498676.458
        44.000          28.000
 132448320.900 6 103206481.64343  25204078.200    25204077.279    25204077.683
        38.250          19.750
 17  2 22 10 26 11.0000000  0  9G02G28G06G05G30G09G07G13G20
 117436431.281 7  91508896.10145  22347410.475    22347409.465    22347407.644
        46.500          34.750
 126061668.498 7  98229880.36244  23988736.151    23988735.288    23988737.890
        43.000          26.750
 126313866.277 7  98426403.56744  24036731.432    24036730.981    24036736.378
        42.500          29.000
 111724165.882 8  87057788.37146  21260401.756    21260401.452    21260400.705
        51.500          40.750
 107519176.593 9  83781185.72047  20460219.226    20460218.489    20460220.444
        54.500          47.000
 119827443.824 8  93372041.04046  22802405.267    22802404.767    22802407.478
        48.500          37.250
 112437205.010 8  87613403.56346  21396089.018    21396088.540    21396088.028
        52.000          41.500
 123483037.319 7  96220551.06544  23498040.349    23498039.844    23498040.182
        44.000          28.250
 132444095.222 6 103203188.91143  25203274.081    25203273.160    25203273.537
        38.250          19.750
 17  2 22 10 26 12.0000000  0  9G02G28G06G05G30G09G07G13G20
 117437629.202 7  91509829.54645  22347638.433    22347637.423    22347635.594
        46.500          34.750
 126057996.284 7  98227018.90844  23988037.277    23988036.414    23988039.078
        42.750          26.750
 126316769.009 7  98428665.43344  24037283.732    24037283.281    24037288.757
        42.500          29.000
 111721613.059 8  87055799.15846  21259916.018    21259915.719    21259914.917
        51.250          40.750
 107517822.064 9  83780130.24347  20459961.467    20459960.730    20459962.682
        54.500          47.000
 119829313.211 8  93373497.70146  22802760.931    22802760.426    22802763.209
        48.250          37.250
 112438311.439 8  87614265.71646  21396299.528    21396299.055    21396298.570
        52.000          41.250
 123479693.618 7  96217945.58844  23497403.981    23497403.472    23497403.892
        44.000          28.000
 132439869.464 6 103199896.10843  25202470.080    25202469.155    25202469.441
        38.000          19.500
 17  2 22 10 26 13.0000000  0  9G02G28G06G05G30G09G07G13G20
 117438827.450 7  91510763.24445  22347866.478    22347865.468    22347863.616
        46.500          34.750
 126054324.005 7  98224157.39344  23987338.722    23987337.859    23987340.275
        43.000          26.750
 126319671.649 7  98430927.22644  24037836.300    24037835.844    24037841.155
        42.500          29.000
 111719060.512 8  87053810.15746  21259430.302    21259430.003    21259429.173
        51.500          40.750
 107516467.983 9  83779075.11647  20459703.795    20459703.058    20459705.009
        54.500          47.000
 119831182.582 8  93374954.35246  22803116.651    22803116.146    22803118.935
        48.500          37.250
 112439418.147 8  87615128.08346  21396510.179    21396509.701    21396509.170
        52.000          41.500
 123476349.894 7  96215340.08644  23496767.719    23496767.214    23496767.634
        44.250          28.000
 132435643.578 6 103196603.20643  25201665.728    25201664.798    25201665.323
        38.000          19.750
 17  2 22 10 26 14.0000000  0  9G02G28G06G05G30G09G07G13G20
 117440025.634 7  91511696.89245  22348094.528    22348093.522    22348091.633
        46.500          35.000
 126050651.310 7  98221295.55144  23986639.840    23986638.982    23986641.387
        42.750          26.750
 126322573.832 7  98433188.66544  24038388.562    24038388.111    24038393.454
        42.750          29.000
 111716507.861 8  87051821.07946  21258944.547    21258944.248    21258943.421
        51.500          40.750
 107515113.966 9  83778020.03647  20459446.135    20459445.402    20459447.349
        54.500          47.000
 119833051.554 8  93376410.69246  22803472.258    22803471.758    22803474.586
        48.250          37.250
 112440524.768 8  87615990.38446  21396720.786    21396720.313    21396719.761
        52.000          41.500
 123473005.786 7  96212734.29044  23496131.266    23496130.761    23496131.264
        44.250          28.000
 132431417.223 6 103193309.93743  25200861.644    25200860.705    25200861.084
        38.000          19.500
 17  2 22 10 26 15.0000000  0  9G02G28G06G05G30G09G07G13G20
 117441224.101 7  91512630.76245  22348322.569    22348321.559    22348319.713
        46.500          34.750
 126046978.514 7  98218433.63344  23985941.091    23985940.228    23985942.473
        42.750          26.750
 126325475.870 7  98435449.98644  24038940.987    24038940.531    24038945.712
        42.750          29.000
 111713955.445 8  87049832.18346  21258458.853    21258458.549    21258457.718
        51.500          40.750
 107513760.333 9  83776965.25847  20459188.531    20459187.798    20459189.766
        54.500          47.000
 119834920.470 8  93377866.99046  22803827.848    22803827.348    22803830.232
        48.250          37.250
 112441631.628 8  87616852.87446  21396931.407    21396930.934    21396930.392
        52.000          41.500
 123469661.642 7  96210128.46844  23495494.986    23495494.477    23495494.912
        44.000          28.000
 132427190.707 6 103190016.54443  25200057.200    25200056.261    25200056.840
        38.000          19.500
 17  2 22 10 26 16.0000000  0  9G02G28G06G05G30G09G07G13G20
 117442422.916 7  91513564.90245  22348550.653    22348549.643    22348547.855
        46.500          34.750
 126043305.697 7  98215571.70544  23985242.259    23985241.396    23985243.554
        42.750          26.750
 126328377.844 7  98437711.26144  24039493.198    24039492.742    24039497.909
        42.750          28.750
 111711403.325 8  87047843.51946  21257973.139    21257972.835    21257972.059
        51.500          40.500
 107512407.173 9  83775910.84947  20458931.024    20458930.287    20458932.268
        54.500          47.000
 119836789.395 8  93379323.29546  22804183.430    22804182.930    22804185.878
        48.250          37.250
 112442738.797 8  87617715.60246  21397142.068    21397141.590    21397141.082
        52.000          41.250
 123466317.490 7  96207522.63344  23494858.586    23494858.081    23494858.542
        44.000          27.750
 132422964.096 6 103186723.08343  25199252.869    25199251.935    25199252.543
        37.750          19.500
 17  2 22 10 26 17.0000000  0  9G02G28G06G05G30G09G07G13G20
 117443622.229 7  91514499.43045  22348778.851    22348777.841    22348776.082
        46.500          34.750
 126039632.985 7  98212709.85544  23984543.291    23984542.428    23984544.675
        42.750          27.000
 126331279.906 7  98439972.60544  24040045.483    24040045.027    24040050.105
        42.750          28.750
 111708851.657 8  87045855.20646  21257487.561    21257487.257    21257486.495
        51.250          40.500
 107511054.627 9  83774856.91747  20458673.636    20458672.899    20458674.886
        54.500          47.000
 119838658.480 8  93380779.72346  22804539.125    22804538.625    22804541.551
        48.250          37.250
 112443846.434 8  87618578.69546  21397352.866    21397352.388    21397351.865
        52.000          41.250
 123462973.538 7  96204916.95744  23494222.339    23494221.834    23494222.194
        44.000          28.000
 132418737.563 6 103183429.67843  25198448.517    25198447.583    25198448.218
        37.500          19.250
 17  2 22 10 26 18.0000000  0  9G02G28G06G05G30G09G07G13G20
 117444821.882 7  91515434.22445  22349007.089    22349006.079    22349004.385
        46.500          34.750
 126035960.255 7  98209847.99244  23983844.291    23983843.428    23983845.787
        42.750          26.750
 126334181.906 7  98442233.90044  24040597.683    24040597.227    24040602.296
        42.750          28.750
 111706300.280 8  87043867.12146  21257002.048    21257001.749    21257000.979
        51.250          40.500
 107509702.538 9  83773803.34147  20458416.348    20458415.611    20458417.597
        54.500          47.000
 119840527.553 8  93382236.14146  22804894.867    22804894.367    22804897.210
        48.250          37.250
 112444954.366 8  87619442.01846  21397563.715    21397563.237    21397562.698
        52.000          41.250
 123459629.550 7  96202311.25544  23493585.991    23493585.491    23493585.846
        44.000          28.000
 132414510.939 6 103180136.20843  25197644.372    25197643.429    25197643.899
        37.500          19.000
 17  2 22 10 26 19.0000000  0  9G02G28G06G05G30G09G07G13G20
 117446022.193 7  91516369.53245  22349235.552    22349234.542    22349232.818
        46.250          34.750
 126032287.789 7  98206986.33344  23983145.336    23983144.473    23983146.953
        42.750          26.750
 126337084.134 7  98444495.37644  24041150.111    24041149.655    24041154.546
        42.500          28.500
 111703749.522 8  87041879.51846  21256516.633    21256516.329    21256515.585
        51.250          40.500
 107508351.226 9  83772750.37147  20458159.198    20458158.461    20458160.452
        54.500          47.000
 119842396.958 8  93383692.82146  22805250.630    22805250.130    22805252.937
        48.250          37.250
 112446062.924 8  87620305.82846  21397774.661    21397774.188    21397773.655
        52.000          41.250
 123456285.906 7  96199705.82044  23492949.719    23492949.219    23492949.624
        43.750          28.000
 132410284.530 6 103176842.91443  25196840.057    25196839.110    25196839.669
        38.000          19.000
 17  2 22 10 26 20.0000000  0  9G02G28G06G05G30G09G07G13G20
 117447223.022 7  91517305.24145  22349464.116    22349463.110    22349461.336
        46.000          34.750
 126028615.495 7  98204124.80644  23982446.329    23982445.471    23982448.155
        42.750          27.000
 126339986.480 7  98446756.94244  24041702.428    24041701.968    24041706.814
        42.500          28.500
 111701199.238 8  87039892.28246  21256031.257    21256030.958    21256030.280
        51.000          40.500
 107507000.556 9  83771697.90047  20457902.126    20457901.389    20457903.437
        54.500          47.000
 119844266.540 8  93385149.63846  22805606.467    22805605.967    22805608.694
        48.250          37.250
 112447171.968 8  87621170.01746  21397985.741    21397985.268    21397984.702
        51.750          41.250
 123452942.465 7  96197100.53744  23492313.455    23492312.955    23492313.433
        43.750          27.750
 132406058.206 6 103173549.67343  25196035.567    25196034.620    25196035.514
        38.000          19.000
 17  2 22 10 26 21.0000000  0  9G02G28G06G05G30G09G07G13G20
 117448424.101 7  91518241.14445  22349692.623    22349691.617    22349689.898
        46.000          34.500
 126024943.070 7  98201263.18244  23981747.432    23981746.574    23981749.289
        42.750          26.750
 126342888.676 7  98449018.39044  24042254.775    24042254.315    24042259.082
        42.500          28.500
 111698649.158 8  87037905.20846  21255545.978    21255545.674    21255545.024
        51.000          40.500
 107505650.256 9  83770645.71947  20457645.188    20457644.455    20457646.488
        54.500          47.000
 119846136.053 8  93386606.40146  22805962.272    22805961.772    22805964.448
        48.250          37.250
 112448281.234 8  87622034.37946  21398196.789    21398196.311    21398195.785
        52.000          41.250
 123449598.932 7  96194495.18244  23491677.246    23491676.746    23491677.179
        43.750          27.750
 132401831.756 6 103170256.33443  25195231.329    25195230.377    25195231.204
        37.500          19.000
 17  2 22 10 26 22.0000000  0  9G02G28G06G05G30G09G07G13G20
 117449625.223 7  91519177.08245  22349921.198    22349920.192    22349918.483
        46.000          34.750
 126021270.331 7  98198401.30844  23981048.528    23981047.674    23981050.352
        42.750          26.750
 126345790.512 7  98451279.55844  24042807.013    24042806.553    24042811.251
        42.500          28.500
 111696099.087 8  87035918.13946  21255060.757    21255060.458    21255059.763
        51.000          40.500
 107504300.116 9  83769593.66347  20457388.287    20457387.554    20457389.562
        54.250          47.000
 119848005.260 8  93388062.92446  22806318.050    22806317.545    22806320.152
        48.250          37.250
 112449390.509 8  87622898.74846  21398407.877    21398407.404    21398406.873
        51.750          41.250
 123446255.128 7  96191889.61844  23491040.922    23491040.422    23491040.872
        43.500          27.750
 132397604.889 6 103166962.66643  25194426.850    25194425.898    25194426.794
        37.500          18.750
 17  2 22 10 26 23.0000000  0  9G02G28G06G05G30G09G07G13G20
 117450827.035 7  91520113.55945  22350149.939    22350148.933    22350147.193
        46.250          34.750
 126017597.891 7  98195539.67444  23980349.663    23980348.814    23980351.491
        42.750          26.750
 126348692.611 7  98453540.93244  24043359.396    24043358.931    24043363.474
        42.500          28.500
 111693549.660 8  87033931.57146  21254575.602    21254575.298    21254574.619
        51.000          40.500
 107502950.785 9  83768542.23747  20457131.516    20457130.779    20457132.802
        54.250          47.000
 119849874.818 8  93389519.72046  22806673.925    22806673.425    22806675.923
        48.250          37.250
 112450500.432 8  87623763.62346  21398619.069    21398618.591    21398618.081
        52.000          41.250
 123442911.649 7  96189284.31544  23490404.562    23490404.066    23490404.622
        43.500          27.500
 132393378.267 6 103163669.20043  25193622.468    25193621.516    25193622.502
        37.500          19.000
 17  2 22 10 26 24.0000000  0  9G02G28G06G05G30G09G07G13G20
 117452029.396 7  91521050.46245  22350378.793    22350377.787    22350376.002
        46.000          34.750
 126013925.637 7  98192678.17944  23979651.039    23979650.185    23979652.684
        42.500          26.750
 126351594.850 7  98455802.41344  24043911.515    24043911.055    24043915.720
        42.250          28.500
 111691000.735 8  87031945.39446  21254090.524    21254090.225    21254089.573
        51.000          40.750
 107501602.126 9  83767491.33447  20456874.900    20456874.163    20456876.162
        54.250          47.000
 119851744.590 8  93390976.68246  22807029.708    22807029.208    22807031.739
        48.250          37.250
 112451610.874 8  87624628.90146  21398830.426    21398829.953    21398829.387
        52.000          41.500
 123439568.403 7  96186679.18644  23489768.412    23489767.916    23489768.427
        43.750          27.750
 132389151.777 6 103160375.82543  25192818.182    25192817.230    25192818.240
        37.500          19.000
 17  2 22 10 26 25.0000000  0  9G02G28G06G05G30G09G07G13G20
 117453231.635 7  91521987.27345  22350607.676    22350606.670    22350604.779
        46.000          34.750
 126010252.867 7  98189816.28544  23978951.996    23978951.142    23978953.801
        42.250          26.500
 126354496.561 7  98458063.48644  24044463.450    24044462.985    24044467.858
        42.250          28.500
 111688451.640 8  87029959.08646  21253605.482    21253605.183    21253604.496
        51.000          40.750
 107500253.455 9  83766440.42247  20456618.232    20456617.495    20456619.522
        54.250          47.000
 119853613.901 8  93392433.28846  22807385.341    22807384.841    22807387.461
        48.250          37.250
 112452721.154 8  87625494.05346  21399041.779    21399041.301    21399040.663
        52.000          41.500
 123436224.705 7  96184073.70844  23489132.092    23489131.601    23489132.168
        44.000          27.500
 132384924.731 6 103157082.03143  25192013.892    25192012.940    25192013.893
        37.250          18.750
 17  2 22 10 26 26.0000000  0  9G02G28G06G05G30G09G07G13G20
 117454434.079 7  91522924.24145  22350836.535    22350835.529    22350833.601
        46.000          34.750
 126006579.952 7  98186954.27444  23978253.111    23978252.262    23978254.868
        42.500          26.750
 126357398.054 7  98460324.38944  24045015.588    24045015.128    24045019.987
        42.000          28.250
 111685902.709 8  87027972.90646  21253120.451    21253120.147    21253119.450
        51.000          40.750
 107498905.119 9  83765389.77047  20456361.646    20456360.913    20456362.945
        54.250          47.250
 119855483.085 8  93393889.79446  22807741.018    22807740.513    22807743.161
        48.000          37.500
 112453831.596 8  87626359.33146  21399253.106    21399252.628    21399251.974
        52.000          41.500
 123432880.891 7  96181468.14044  23488495.800    23488495.309    23488495.843
        44.000          27.500
 132380697.458 6 103153788.05843  25191209.496    25191208.535    25191209.426
        37.250          18.750
 17  2 22 10 26 27.0000000  0  9G02G28G06G05G30G09G07G13G20
 117455637.014 7  91523861.59145  22351065.448    22351064.438    22351062.503
        45.750          34.750
 126002907.132 7  98184092.34044  23977554.117    23977553.268    23977555.927
        42.000          26.500
 126360299.621 6  98462585.34744  24045567.589    24045567.124    24045572.098
        41.750          28.250
 111683354.219 8  87025987.07146  21252635.512    21252635.208    21252634.498
        50.500          40.750
 107497557.381 9  83764339.58447  20456105.172    20456104.435    20456106.484
        54.000          47.000
 119857352.419 7  93395346.41646  22808096.710    22808096.210    22808098.896
        47.750          37.500
 112454942.491 8  87627224.96346  21399464.496    21399464.018    21399463.370
        51.500          41.500
 123429537.224 7  96178862.68444  23487859.734    23487859.247    23487859.576
        43.500          27.500
 132376470.243 6 103150494.12443  25190405.028    25190404.067    25190405.008
        37.000          18.500
 17  2 22 10 26 28.0000000  0  9G02G28G06G05G30G09G07G13G20
 117456840.225 7  91524799.15745  22351294.300    22351293.294    22351291.473
        45.750          34.500
 125999234.222 7  98181230.33744  23976855.212    23976854.363    23976857.012
        42.000          26.500
 126363201.071 6  98464846.21544  24046119.668    24046119.203    24046124.182
        41.250          28.000
 111680805.959 8  87024001.41246  21252150.674    21252150.370    21252149.582
        50.500          40.500
 107496210.037 9  83763289.70547  20455848.807    20455848.070    20455850.099
        54.000          47.000
 119859221.678 8  93396802.98046  22808452.362    22808451.862    22808454.614
        48.000          37.250
 112456053.625 8  87628090.78446  21399675.871    21399675.398    21399674.810
        51.500          41.500
 123426193.495 7  96176257.18244  23487223.501    23487223.014    23487223.304
        43.500          27.250
 132372242.882 6 103147200.07643  25189600.883    25189599.918    25189600.648
        36.750          18.500
 17  2 22 10 26 29.0000000  0  9G02G28G06G05G30G09G07G13G20
 117458044.271 7  91525737.37445  22351523.413    22351522.407    22351520.599
        45.750          34.500
 125995561.772 7  98178368.69144  23976156.456    23976155.607    23976158.174
        42.250          26.500
 126366102.945 6  98467107.41444  24046671.905    24046671.440    24046676.334
        41.250          28.000
 111678258.501 8  87022016.38046  21251665.909    21251665.605    21251664.813
        50.750          40.500
 107494863.647 9  83762240.57247  20455592.593    20455591.856    20455593.884
        54.000          47.000
 119861091.446 8  93398259.94346  22808808.122    22808807.622    22808810.430
        48.000          37.250
 112457165.559 8  87628957.22546  21399887.418    21399886.945    21399886.408
        51.750          41.250
 123422850.279 7  96173652.08044  23486587.200    23486586.713    23486587.082
        43.250          27.250
 132368015.932 6 103143906.35143  25188796.749    25188795.779    25188796.329
        37.250          18.750
 17  2 22 10 26 30.0000000  0  9G02G28G06G05G30G09G07G13G20
 117459248.783 7  91526675.95645  22351752.656    22351751.650    22351749.823
        45.750          34.500
 125991889.420 7  98175507.12544  23975457.727    23975456.887    23975459.326
        42.250          26.500
 126369004.862 6  98469368.64444  24047224.128    24047223.668    24047228.490
        40.750          27.750
 111675711.457 8  87020031.67146  21251181.241    21251180.937    21251180.130
        50.750          40.500
 107493517.843 9  83761191.89547  20455336.449    20455335.712    20455337.794
        54.000          47.000
 119862961.339 7  93399717.00146  22809163.977    22809163.477    22809166.251
        47.750          37.250
 112458277.929 8  87629824.00646  21400099.115    21400098.637    21400098.081
        51.500          41.250
 123419507.187 7  96171047.07744  23485950.967    23485950.476    23485950.873
        43.250          27.250
 132363789.020 6 103140612.63843  25187992.354    25187991.375    25187991.978
        37.000          18.500
 17  2 22 10 26 31.0000000  0  9G02G28G06G05G30G09G07G13G20
 117460453.533 7  91527614.71945  22351981.989    22351980.979    22351979.092
        45.750          34.500
 125988216.918 7  98172645.43544  23974758.898    23974758.058    23974760.438
        42.250          26.500
 126371906.611 6  98471629.74344  24047776.329    24047775.864    24047780.637
        40.500          27.750
 111673164.608 8  87018047.11346  21250696.565    21250696.261    21250695.477
        50.750          40.750
 107492172.405 9  83760143.50247  20455080.411    20455079.674    20455081.763
        54.000          47.000
 119864831.134 8  93401173.98346  22809519.707    22809519.211    22809522.053
        48.000          37.250
 112459390.497 8  87630690.93946  21400310.834    21400310.356    21400309.794
        51.500          41.250
 123416164.004 7  96168442.00144  23485314.748    23485314.257    23485314.624
        43.500          27.250
 132359561.924 6 103137318.79343  25187187.715    25187186.736    25187187.546
        37.000          18.500
 17  2 22 10 26 32.0000000  0  9G02G28G06G05G30G09G07G13G20
 117461659.155 7  91528554.16145  22352211.411    22352210.401    22352208.522
        45.500          34.500
 125984544.941 7  98169784.15544  23974060.333    23974059.488    23974061.644
        42.250          26.500
 126374808.825 6  98473891.20444  24048328.533    24048328.068    24048332.936
        40.250          27.500
 111670618.581 8  87016063.19646  21250212.068    21250211.764    21250210.977
        50.750          40.750
 107490827.951 9  83759095.87647  20454824.549    20454823.816    20454825.923
        54.000          47.000
 119866701.460 7  93402631.37846  22809875.650    22809875.154    22809877.959
        47.750          37.250
 112460503.888 8  87631558.51746  21400522.670    21400522.192    21400521.669
        51.500          41.250
 123412821.369 7  96165837.35744  23484678.682    23484678.195    23484678.508
        43.500          27.500
 132355335.243 6 103134025.27643  25186383.508    25186382.534    25186383.213
        37.250          18.500
 17  2 22 10 26 33.0000000  0  9G02G28G06G05G30G09G07G13G20
 117462865.406 7  91529494.09445  22352440.899    22352439.889    22352438.068
        45.750          34.500
 125980873.201 7  98166923.05844  23973361.476    23973360.636    23973362.926
        42.250          26.500
 126377711.250 6  98476152.82844  24048880.777    24048880.312    24048885.244
        40.250          27.250
 111668073.137 8  87014079.73546  21249727.650    21249727.346    21249726.602
        50.750          40.750
 107489484.240 9  83758048.82847  20454568.866    20454568.133    20454570.222
        54.000          47.000
 119868572.081 7  93404089.00646  22810231.665    22810231.165    22810233.927
        47.750          37.250
 112461617.886 8  87632426.56646  21400734.625    21400734.147    21400733.650
        51.500          41.250
 123409479.030 7  96163232.93744  23484042.694    23484042.203    23484042.465
        43.500          27.500
 132351108.764 6 103130731.90843  25185579.297    25185578.314    25185579.018
        37.000          18.500
 17  2 22 10 26 34.0000000  0  9G02G28G06G05G30G09G07G13G20
 117464071.967 7  91530434.27045  22352670.450    22352669.444    22352667.655
        45.750          34.500
 125977201.413 7  98164061.92844  23972662.752    23972661.907    23972664.209
        42.000          26.250
 126380613.582 6  98478414.38744  24049433.238    24049432.769    24049437.512
        40.250          27.000
 111665527.972 8  87012096.48946  21249243.241    21249242.942    21249242.281
        50.750          40.500
 107488140.970 9  83757002.12547  20454313.296    20454312.559    20454314.615
        54.000          47.000
 119870442.673 8  93405546.61046  22810587.685    22810587.185    22810589.877
        48.000          37.250
 112462732.166 8  87633294.83546  21400946.650    21400946.172    21400945.695
        51.500          41.250
 123406136.678 7  96160628.50444  23483406.593    23483406.102    23483406.435
        43.000          27.250
 132346882.185 6 103127438.46443  25184775.097    25184774.114    25184774.806
        37.000          18.500
 17  2 22 10 26 35.0000000  0  9G02G28G06G05G30G09G07G13G20
 117465278.711 7  91531374.58945  22352900.010    22352899.004    22352897.277
        45.750          34.500
 125973529.445 6  98161200.65544  23971963.848    23971962.999    23971965.455
        41.750          26.000
 126383515.682 6  98480675.75844  24049985.530    24049985.065    24049989.753
        40.250          26.750
 111662982.948 8  87010113.35446  21248758.991    21248758.687    21248757.982
        50.750          40.500
 107486798.009 9  83755955.66147  20454057.760    20454057.027    20454059.062
        54.000          47.000
 119872313.120 8  93407004.10046  22810943.680    22810943.180    22810945.804
        48.000          37.250
 112463846.590 8  87634163.21746  21401158.790    21401158.312    21401157.757
        51.750          41.250
 123402794.156 7  96158023.94344  23482770.650    23482770.154    23482770.360
        43.000          27.250
 132342655.358 6 103124144.84243  25183971.006    25183970.023    25183970.446
        37.000          18.250
 17  2 22 10 26 36.0000000  0  9G02G28G06G05G30G09G07G13G20
 117466485.706 7  91532315.10345  22353129.738    22353128.732    22353126.966
        45.750          34.500
 125969857.336 7  98158339.27844  23971264.972    23971264.123    23971266.621
        42.000          26.000
 126386417.613 6  98482937.00344  24050537.713    24050537.248    24050541.931
        40.250          27.000
 111660438.129 8  87008130.37946  21248274.735    21248274.436    21248273.718
        50.750          40.500
 107485455.407 9  83754909.47847  20453802.255    20453801.522    20453803.576
        54.000          47.000
 119874183.469 8  93408461.51346  22811299.605    22811299.105    22811301.723
        48.000          37.250
 112464961.231 8  87635031.76946  21401370.959    21401370.481    21401369.873
        51.750          41.250
 123399451.588 7  96155419.34844  23482134.539    23482134.043    23482134.276
        43.250          27.500
 132338428.363 6 103120851.07643  25183166.401    25183165.418    25183166.046
        37.250          18.250
 17  2 22 10 26 37.0000000  0  9G02G28G06G05G30G09G07G13G20
 117467693.447 7  91533256.20245  22353359.534    22353358.528    22353356.794
        45.750          34.250
 125966185.613 6  98155478.19944  23970566.238    23970565.389    23970567.863
        41.750          26.000
 126389319.896 6  98485198.52144  24051090.015    24051089.550    24051094.221
        40.000          26.750
 111657894.033 8  87006147.96546  21247790.591    21247790.287    21247789.589
        50.750          40.500
 107484113.693 9  83753863.98747  20453546.948    20453546.215    20453548.255
        54.000          47.000
 119876054.253 8  93409919.26646  22811655.592    22811655.096    22811657.718
        48.000          37.250
 112466076.591 8  87635900.87846  21401583.212    21401582.734    21401582.123
        51.500          41.250
 123396109.422 7  96152815.06044  23481498.447    23481497.956    23481498.273
        43.250          27.250
 132334201.688 6 103117557.56043  25182361.876    25182360.888    25182361.690
        37.000          18.500
 17  2 22 10 26 38.0000000  0  9G02G28G06G05G30G09G07G13G20
 117468901.317 7  91534197.39945  22353589.240    22353588.234    22353586.640
        45.750          34.500
 125962513.655 6  98152616.93844  23969867.607    23969866.753    23969869.105
        41.750          25.750
 126392221.875 6  98487459.81144  24051642.273    24051641.808    24051646.426
        40.000          26.750
 111655349.999 8  87004165.60246  21247306.473    21247306.169    21247305.478
        50.750          40.500
 107482772.206 9  83752818.67247  20453291.716    20453290.983    20453292.984
        54.000          47.000
 119877924.797 8  93411376.82946  22812011.581    22812011.085    22812013.673
        48.000          37.250
 112467192.029 8  87636770.05046  21401795.486    21401795.008    21401794.382
        51.500          41.250
 123392767.070 7  96150210.62644  23480862.268    23480861.781    23480862.242
        43.000          27.250
 132329974.690 6 103114263.79143  25181557.530    25181556.542    25181557.286
        36.750          18.500
 17  2 22 10 26 39.0000000  0  9G02G28G06G05G30G09G07G13G20
 117470109.995 7  91535139.22545  22353819.248    22353818.238    22353816.652
        46.000          34.500
 125958842.134 6  98149756.01944  23969168.919    23969168.061    23969170.414
        41.750          25.500
 126395124.245 6  98489721.38844  24052194.563    24052194.098    24052198.716
        39.750          26.750
 111652806.734 8  87002183.83746  21246822.566    21246822.262    21246821.505
        51.000          40.500
 107481431.655 9  83751774.08747  20453036.639    20453035.902    20453037.887
        54.250          47.000
 119879795.820 8  93412834.76846  22812367.651    22812367.151    22812369.726
        48.250          37.250
 112468308.247 8  87637639.82946  21402007.889    21402007.411    21402006.802
        51.500          41.250
 123389425.158 7  96147606.53844  23480226.233    23480225.746    23480226.279
        43.750          27.250
 132325748.101 6 103110970.34743  25180753.164    25180752.172    25180752.971
        37.000          19.000
 17  2 22 10 26 40.0000000  0  9G02G28G06G05G30G09G07G13G20
 117471318.996 7  91536081.30345  22354049.273    22354048.263    22354046.726
        45.750          34.250
 125955170.575 6  98146895.06344  23968470.386    23968469.528    23968471.700
        41.750          25.500
 126398026.559 6  98491982.93044  24052746.754    24052746.285    24052751.011
        40.000          26.250
 111650263.762 8  87000202.30146  21246338.635    21246338.331    21246337.591
        51.000          40.500
 107480091.548 9  83750729.84847  20452781.601    20452780.864    20452782.875
        54.250          47.000
 119881666.850 8  93414292.71246  22812723.676    22812723.176    22812725.787
        48.000          37.250
 112469424.762 8  87638509.84046  21402220.276    21402219.798    21402219.275
        51.500          41.250
 123386083.258 7  96145002.46644  23479590.259    23479589.772    23479590.285
        43.500          27.250
 132321521.402 6 103107676.81943  25179948.653    25179947.665    25179948.611
        37.000          19.250
 17  2 22 10 26 41.0000000  0  9G02G28G06G05G30G09G07G13G20
 117472528.496 7  91537023.76745  22354279.533    22354278.527    22354276.902
        46.000          34.500
 125951499.139 6  98144034.20744  23967771.797    23967770.939    23967772.987
        41.750          25.500
 126400928.961 6  98494244.54144  24053299.115    24053298.650    24053303.296
        40.000          26.250
 111647721.236 8  86998221.11146  21245854.808    21245854.504    21245853.770
        50.750          40.500
 107478752.061 9  83749686.09247  20452526.751    20452526.014    20452527.979
        54.250          47.000
 119883538.022 8  93415750.76946  22813079.726    22813079.226    22813081.867
        48.000          37.250
 112470541.737 8  87639380.20946  21402432.761    21402432.283    21402431.834
        51.500          41.250
 123382741.535 7  96142398.53644  23478954.588    23478954.101    23478954.358
        43.750          27.500
 132317294.777 6 103104383.34643  25179144.819    25179143.827    25179144.251
        36.750          19.250
 17  2 22 10 26 42.0000000  0  9G02G28G06G05G30G09G07G13G20
 117473738.548 7  91537966.66645  22354509.818    22354508.812    22354507.173
        45.750          34.250
 125947827.898 6  98141173.50444  23967073.130    23967072.272    23967074.345
        41.750          25.500
 126403831.472 6  98496506.23744  24053851.434    24053850.965    24053855.600
        39.750          26.250
 111645179.220 8  86996240.32046  21245371.093    21245370.794    21245370.043
        50.750          40.500
 107477413.251 9  83748642.86447  20452271.938    20452271.205    20452273.208
        54.250          47.000
 119885409.426 8  93417209.00346  22813435.746    22813435.246    22813437.983
        48.000          37.000
 112471659.226 8  87640250.98146  21402645.385    21402644.907    21402644.486
        51.500          41.250
 123379400.026 7  96139794.76344  23478318.676    23478318.194    23478318.479
        43.500          27.500
 132313068.280 6 103101089.96743  25178340.531    25178339.543    25178340.016
        36.750          19.250
 17  2 22 10 26 43.0000000  0  9G02G28G06G05G30G09G07G13G20
 117474948.747 7  91538909.67745  22354740.196    22354739.190    22354737.475
        45.750          34.500
 125944156.401 6  98138312.60244  23966374.480    23966373.626    23966375.676
        41.750          25.500
 126406733.733 6  98498767.73144  24054403.658    24054403.189    24054407.854
        39.500          26.250
 111642637.300 8  86994259.60446  21244887.391    21244887.092    21244886.330
        50.750          40.500
 107476074.697 9  83747599.83347  20452017.223    20452016.490    20452018.504
        54.250          47.000
 119887280.625 8  93418667.07746  22813791.867    22813791.367    22813794.054
        48.000          37.000
 112472776.821 8  87641121.83346  21402858.089    21402857.611    21402857.161
        51.750          41.250
 123376058.329 7  96137190.84944  23477682.993    23477682.511    23477682.592
        43.500          27.500
 132308841.485 6 103097796.36643  25177536.197    25177535.209    25177535.822
        36.750          19.250
 17  2 22 10 26 44.0000000  0  9G02G28G06G05G30G09G07G13G20
 117476159.057 7  91539852.77445  22354970.516    22354969.510    22354967.795
        45.750          34.500
 125940484.688 7  98135451.52844  23965675.734    23965674.880    23965676.990
        42.000          25.500
 126409635.692 6  98501028.99544  24054955.811    24054955.342    24054960.046
        39.750          26.250
 111640095.455 8  86992278.94546  21244403.684    21244403.380    21244402.626
        50.750          40.500
 107474736.375 9  83746556.98547  20451762.509    20451761.776    20451763.836
        54.250          47.000
 119889151.615 8  93420124.99146  22814147.888    22814147.392    22814150.084
        48.000          37.000
 112473894.495 8  87641992.74646  21403070.768    21403070.290    21403069.850
        51.750          41.250
 123372716.423 7  96134586.76644  23477047.109    23477046.627    23477046.634
        43.750          27.750
 132304614.388 6 103094502.52043  25176732.046    25176731.058    25176731.529
        36.750          19.000
 17  2 22 10 26 45.0000000  0  9G02G28G06G05G30G09G07G13G20
 117477370.170 7  91540796.49545  22355200.936    22355199.930    22355198.258
        45.750          34.500
 125936813.384 7  98132590.77544  23964977.065    23964976.211    23964978.370
        42.000          25.500
 126412538.069 6  98503290.58144  24055508.293    24055507.824    24055512.305
        39.750          26.000
 111637554.369 8  86990298.87746  21243920.161    21243919.857    21243919.078
        51.000          40.500
 107473398.977 9  83745514.85747  20451508.042    20451507.305    20451509.347
        54.250          47.000
 119891023.054 8  93421583.25546  22814503.950    22814503.450    22814506.204
        48.000          37.250
 112475012.937 8  87642864.25846  21403283.630    21403283.152    21403282.676
        51.750          41.250
 123369374.990 7  96131983.05444  23476411.320    23476410.838    23476410.805
        43.750          27.500
 132300387.669 6 103091208.96443  25175927.394    25175926.402    25175927.240
        36.750          18.750
 17  2 22 10 26 46.0000000  0  9G02G28G06G05G30G09G07G13G20
 117478581.371 7  91541740.28645  22355431.428    22355430.422    22355428.739
        46.000          34.250
 125933141.808 7  98129729.81144  23964278.422    23964277.568    23964279.666
        42.250          25.500
 126415440.085 6  98505551.89544  24056060.337    24056059.868    24056064.514
        39.500          25.750
 111635013.332 8  86988318.84946  21243436.639    21243436.335    21243435.535
        51.000          40.500
 107472061.794 9  83744472.89947  20451253.593    20451252.860    20451254.894
        54.250          47.000
 119892894.249 8  93423041.32846  22814860.091    22814859.591    22814862.275
        48.250          37.000
 112476131.436 8  87643735.81646  21403496.537    21403496.059    21403495.521
        51.750          41.250
 123366033.314 7  96129379.15044  23475775.417    23475774.935    23475774.909
        44.000          27.750
 132296160.616 6 103087915.16343  25175123.095    25175122.098    25175122.925
        37.000          19.000
 17  2 22 10 26 47.0000000  0  9G02G28G06G05G30G09G07G13G20
 117479793.034 7  91542684.43745  22355661.899    22355660.893    22355659.327
        45.750          34.250
 125929470.319 7  98126868.91244  23963579.870    23963579.012    23963580.993
        42.000          25.500
 126418342.168 6  98507813.25544  24056612.530    24056612.061    24056616.755
        39.250          25.500
 111632472.717 8  86986339.14946  21242953.092    21242952.788    21242952.072
        50.750          40.500
 107470725.193 9  83743431.39247  20450999.256    20450998.523    20451000.548
        54.250          47.000
 119894765.566 8  93424499.49646  22815216.213    22815215.717    22815218.382
        48.000          37.000
 112477250.360 8  87644607.70446  21403709.462    21403708.984    21403708.455
        51.750          41.250
 123362691.778 7  96126775.35344  23475139.586    23475139.104    23475139.035
        43.750          27.500
 132291933.596 6 103084621.38443  25174318.597    25174317.591    25174318.605
        36.750          18.750
 17  2 22 10 26 48.0000000  0  9G02G28G06G05G30G09G07G13G20
 117481004.943 7  91543628.78345  22355892.635    22355891.625    22355889.964
        45.500          34.500
 125925798.708 6  98124007.92044  23962881.231    23962880.373    23962882.302
        41.750          25.750
 126421244.074 6  98510074.47944  24057164.699    24057164.226    24057168.978
        39.000          25.750
 111629932.303 8  86984359.60646  21242469.672    21242469.368    21242468.654
        50.750          40.500
 107469388.958 9  83742390.17147  20450744.958    20450744.221    20450746.270
        54.250          47.000
 119896636.807 8  93425957.60646  22815572.346    22815571.846    22815574.461
        48.000          37.000
 112478369.494 8  87645479.75646  21403922.457    21403921.979    21403921.425
        51.750          41.250
 123359350.163 7  96124171.50144  23474503.586    23474503.108    23474503.143
        43.750          27.750
 132287706.405 6 103081327.47443  25173514.035    25173513.034    25173514.210
        36.750          18.750
 17  2 22 10 26 49.0000000  0  9G02G28G06G05G30G09G07G13G20
 117482217.406 7  91544573.55945  22356123.402    22356122.396    22356120.709
        45.500          34.500
 125922127.274 6  98121147.06744  23962182.489    23962181.631    23962183.651
        41.500          25.500
 126424146.133 6  98512335.82444  24057716.538    24057716.069    24057721.215
        39.000          25.750
 111627392.398 8  86982380.45846  21241986.377    21241986.073    21241985.321
        50.750          40.500
 107468053.394 9  83741349.47147  20450490.772    20450490.035    20450492.120
        54.250          47.000
 119898508.247 8  93427415.86946  22815928.465    22815927.969    22815930.577
        48.000          37.000
 112479489.131 8  87646352.19846  21404135.547    21404135.069    21404134.480
        51.750          41.250
 123356008.756 7  96121567.81144  23473867.639    23473867.157    23473867.297
        43.750          27.750
 132283479.320 6 103078033.64543  25172709.430    25172708.429    25172709.809
        36.500          19.000
 17  2 22 10 26 50.0000000  0  9G02G28G06G05G30G09G07G13G20
 117483430.128 7  91545518.53545  22356354.144    22356353.134    22356351.494
        45.500          34.250
 125918455.745 6  98118286.14044  23961483.692    23961482.838    23961484.996
        41.500          25.500
 126427048.053 6  98514597.05044  24058268.897    24058268.424    24058273.415
        38.750          25.750
 111624852.725 8  86980401.49246  21241503.052    21241502.748    21241502.032
        50.750          40.500
 107466718.214 9  83740309.06947  20450236.659    20450235.926    20450238.043
        54.250          47.000
 119900379.626 8  93428874.08646  22816284.597    22816284.097    22816286.684
        48.000          37.000
 112480609.014 8  87647224.83346  21404348.643    21404348.165    21404347.589
        51.500          41.250
 123352667.301 7  96118964.08344  23473231.785    23473231.303    23473231.436
        44.000          27.750
 132279252.080 6 103074739.69143  25171904.892    25171903.886    25171905.445
        36.500          19.000
 17  2 22 10 26 51.0000000  0  9G02G28G06G05G30G09G07G13G20
 117484642.999 7  91546463.62545  22356584.976    22356583.966    22356582.305
        45.750          34.500
 125914783.986 6  98115425.03244  23960784.744    23960783.890    23960786.296
        41.750          25.500
 126429949.689 6  98516858.05944  24058820.827    24058820.354    24058825.558
        38.750          25.500
 111622313.153 8  86978422.60546  21241019.742    21241019.438    21241018.775
        50.750          40.500
 107465383.305 9  83739268.88347  20449982.609    20449981.872    20449984.023
        54.250          47.000
 119902250.815 8  93430332.15246  22816640.753    22816640.257    22816642.759
        48.000          37.000
 112481728.997 8  87648097.54846  21404561.792    21404561.314    21404560.724
        51.750          41.250
 123349325.643 7  96116360.19144  23472595.755    23472595.273    23472595.545
        44.000          27.750
 132275024.556 6 103071445.50643  25171100.406    25171099.405    25171101.054
        36.500          18.500
 17  2 22 10 26 52.0000000  0  9G02G28G06G05G30G09G07G13G20
 117485856.330 7  91547409.08045  22356815.861    22356814.855    22356813.207
        45.750          34.500
 125911112.325 7  98112564.00244  23960086.008    23960085.150    23960087.578
        42.000          25.500
 126432851.382 6  98519119.10944  24059372.948    24059372.479    24059377.736
        38.500          25.500
 111619774.001 8  86976444.04546  21240536.564    21240536.260    21240535.594
        51.000          40.500
 107464048.963 9  83738229.13747  20449728.642    20449727.905    20449730.111
        54.250          47.000
 119904122.121 8  93431790.31146  22816996.889    22816996.389    22816998.848
        48.250          37.250
 112482849.407 8  87648970.59346  21404774.956    21404774.483    21404773.936
        51.750          41.500
 123345984.129 7  96113756.41844  23471959.858    23471959.376    23471959.685
        43.750          28.000
 132270797.083 6 103068151.37343  25170295.917    25170294.911    25170296.595
        36.250          18.500
 17  2 22 10 26 53.0000000  0  9G02G28G06G05G30G09G07G13G20
 117487070.465 7  91548355.15945  22357046.788    22357045.782    22357044.246
        45.750          34.500
 125907441.112 7  98109703.31644  23959387.550    23959386.692    23959388.967
        42.000          25.500
 126435753.471 6  98521380.47544  24059925.282    24059924.813    24059929.955
        38.250          25.500
 111617235.618 8  86974466.08546  21240053.566    21240053.262    21240052.551
        51.000          40.750
 107462715.563 9  83737190.12347  20449474.922    20449474.185    20449476.378
        54.250          47.250
 119905993.902 8  93433248.83946  22817353.079    22817352.579    22817355.026
        48.250          37.250
 112483970.590 8  87649844.24146  21404988.308    21404987.830    21404987.295
        51.750          41.500
 123342643.092 7  96111153.01044  23471324.047    23471323.565    23471323.905
        43.750          28.000
 132266569.961 6 103064857.50743  25169491.552    25169490.546    25169492.164
        36.250          18.500
 17  2 22 10 26 54.0000000  0  9G02G28G06G05G30G09G07G13G20
 117488285.045 7  91549301.58345  22357277.942    22357276.936    22357275.376
        45.750          34.250
 125903769.965 7  98106842.68644  23958688.977    23958688.123    23958690.370
        42.000          25.250
 126438655.576 6  98523641.85044  24060477.618    24060477.149    24060482.191
        38.250          25.500
 111614697.632 8  86972488.43446  21239570.621    21239570.317    21239569.585
        51.000          40.500
 107461382.718 9  83736151.54247  20449221.234    20449220.501    20449222.748
        54.250          47.000
 119907865.787 8  93434707.44946  22817709.271    22817708.771    22817711.240
        48.250          37.250
 112485092.179 8  87650718.20546  21405201.749    21405201.271    21405200.730
        51.750          41.500
 123339302.165 7  96108549.68844  23470688.315    23470687.833    23470688.165
        43.750          27.750
 132262342.896 6 103061563.68243  25168687.095    25168686.094    25168687.746
        36.000          18.500
 17  2 22 10 26 55.0000000  0  9G02G28G06G05G30G09G07G13G20
 117489499.755 7  91550248.10945  22357509.133    22357508.127    22357506.550
        45.750          34.500
 125900098.558 6  98103981.85744  23957990.594    23957989.740    23957991.728
        41.750          25.250
 126441557.404 6  98525903.01744  24061029.678    24061029.209    24061034.468
        38.250          25.250
 111612159.740 8  86970510.85546  21239087.771    21239087.467    21239086.640
        51.000          40.500
 107460050.132 9  83735113.16447  20448967.686    20448966.949    20448969.166
        54.500          47.000
 119909737.461 8  93436165.89446  22818065.465    22818064.965    22818067.413
        48.250          37.250
 112486213.859 8  87651592.23946  21405415.207    21405414.729    21405414.174
        51.750          41.500
 123335961.032 7  96105946.21044  23470052.500    23470052.018    23470052.403
        44.000          27.750
 132258115.506 6 103058269.61143  25167882.798    25167881.797    25167883.288
        36.000          18.250
 17  2 22 10 26 56.0000000  0  9G02G28G06G05G30G09G07G13G20
 117490714.892 7  91551194.96645  22357740.357    22357739.351    22357737.800
        46.000          34.500
 125896427.241 7  98101121.09344  23957291.914    23957291.060    23957293.091
        42.000          25.250
 126444459.247 6  98528164.19044  24061581.707    24061581.238    24061586.718
        38.000          25.500
 111609622.231 8  86968533.57746  21238604.887    21238604.583    21238603.763
        51.000          40.500
 107458718.089 9  83734075.21047  20448714.171    20448713.434    20448715.692
        54.500          47.000
 119911609.235 8  93437624.42146  22818421.566    22818421.066    22818423.596
        48.250          37.250
 112487335.929 8  87652466.58046  21405628.707    21405628.229    21405627.694
        52.000          41.250
 123332620.015 7  96103342.82544  23469416.811    23469416.329    23469416.624
        44.000          27.750
 132253888.126 6 103054975.55943  25167078.542    25167077.541    25167078.811
        36.250          18.000
 17  2 22 10 26 57.0000000  0  9G02G28G06G05G30G09G07G13G20
 117491930.689 7  91552142.33845  22357971.608    22357970.602    22357969.170
        45.750          34.500
 125892756.221 7  98098260.56144  23956593.401    23956592.547    23956594.489
        42.000          25.250
 126447361.345 6  98530425.56244  24062133.800    24062133.327    24062139.026
        38.000          25.250
 111607085.343 8  86966556.78146  21238122.121    21238121.822    21238121.011
        51.000          40.500
 107457386.832 9  83733037.86647  20448460.894    20448460.157    20448462.370
        54.250          47.000
 119913481.326 8  93439083.19046  22818777.742    22818777.242    22818779.846
        48.000          37.250
 112488458.632 8  87653341.41346  21405842.368    21405841.895    21405841.334
        51.750          41.250
 123329279.320 7  96100739.68644  23468781.084    23468780.602    23468780.893
        43.750          27.750
 132249660.992 6 103051681.69143  25166273.965    25166272.968    25166274.349
        36.250          18.000
 17  2 22 10 26 58.0000000  0  9G02G28G06G05G30G09G07G13G20
 117493146.869 7  91553090.01245  22358203.031    22358202.025    22358200.608
        45.750          34.500
 125889085.203 6  98095400.02944  23955894.676    23955893.827    23955895.888
        41.750          25.250
 126450263.402 6  98532686.89544  24062685.785    24062685.307    24062691.285
        38.000          25.500
 111604548.796 8  86964580.25146  21237639.432    21237639.133    21237638.331
        50.750          40.750
 107456056.079 9  83732000.91747  20448207.696    20448206.959    20448209.142
        54.250          47.250
 119915353.471 8  93440542.00546  22819133.978    22819133.478    22819136.113
        48.000          37.250
 112489581.672 8  87654216.50946  21406056.044    21406055.566    21406055.047
        51.750          41.500
 123325938.672 7  96098136.58644  23468145.496    23468145.009    23468145.180
        44.000          27.750
 132245433.803 6 103048387.75343  25165469.628    25165468.631    25165469.908
        36.250          18.500
 17  2 22 10 26 59.0000000  0  9G02G28G06G05G30G09G07G13G20
 117494363.186 7  91554037.79045  22358434.484    22358433.478    22358432.077
        45.750          34.500
 125885413.949 6  98092539.31044  23955196.153    23955195.299    23955197.264
        41.750          25.000
 126453165.166 6  98534948.00544  24063238.074    24063237.601    24063243.494
        38.250          25.500
 111602012.336 8  86962603.78846  21237156.740    21237156.436    21237155.660
        50.750          40.750
 107454725.563 9  83730964.15147  20447954.557    20447953.820    20447955.959
        54.250          47.250
 119917225.400 8  93442000.65046  22819490.227    22819489.727    22819492.345
        48.000          37.250
 112490704.801 8  87655091.67346  21406269.753    21406269.275    21406268.777
        51.750          41.500
 123322597.828 7  96095533.33144  23467509.873    23467509.386    23467509.450
        43.750          28.000
 132241206.315 6 103045093.61243  25164665.509    25164664.508    25164665.450
        36.250          18.250
