     2.11           OBSERVATION DATA    G (GPS)             RINEX VERSION / TYPE
teqc  2015Nov6                          20170330 08:00:59UTCPGM / RUN BY / DATE
Linux 2.4.21-27.ELsmp|Opteron|gcc -static|Linux x86_64|=+   COMMENT
teqc  2015Nov6                          20170223 13:36:57UTCCOMMENT
REF1                                                        MARKER NAME
Miquel Garcia       ROKUBUN                                 OBSERVER / AGENCY
PROTO2              Argonaut            1.0                 REC # / TYPE / VERS
10546               PolaNt-x MF                             ANT # / TYPE
        0.0000        0.0000        0.0000                  APPROX POSITION XYZ
        0.0000        0.0000        0.0000                  ANTENNA: DELTA H/E/N
     1     0                                                WAVELENGTH FACT L1/2
     4    L1    C1    S1    D1                              # / TYPES OF OBSERV
     1.0000                                                 INTERVAL
 SNR is mapped to RINEX snr flag value [0-9]                COMMENT
  L1 & L2: min(max(int(snr_dBHz/6), 0), 9)                  COMMENT
Forced Modulo Decimation to 1 seconds                       COMMENT
  2017     2    22    10    25   43.0000000     GPS         TIME OF FIRST OBS
                                                            END OF HEADER
 17  2 22 10 26  0.0000000  0  9G30G07G05G02G09G13G06G28G20
   -133087.593 8  20321855.603          53.000        1140.152
    144841.391 8  21252572.651          51.000       -1322.460
   -266442.482 8  21124544.940          50.000        2336.633
    154724.654 7  22203703.505          46.000       -1413.622
    232840.027 8  22657288.114          48.000       -2088.951
   -353218.550 7  23363835.337          43.000        3124.168
    349512.397 6  23889450.414          41.000       -3122.906
   -389995.721 7  23855218.130          42.000        3452.148
   -451830.900 6  25070912.764          36.000        4004.851
 17  2 22 10 26  1.0000000  0  9G30G07G05G02G09G13G06G28G20
   -134226.539 9  20321639.623          54.000        1137.802
    146165.069 8  21252824.389          52.000       -1324.623
   -268777.920 8  21124100.258          51.000        2334.408
    156139.440 7  22203972.955          46.000       -1415.864
    234930.016 8  22657685.998          48.000       -2090.937
   -356341.723 7  23363241.211          44.000        3122.174
    352636.526 7  23890044.840          42.000       -3124.921
   -393446.935 7  23854561.654          43.000        3450.452
   -455835.049 6  25070150.820          37.000        4003.219
 17  2 22 10 26  2.0000000  0  9G30G07G05G02G09G13G06G28G20
   -135363.649 9  20321422.806          54.000        1136.429
    147490.449 8  21253076.756          52.000       -1326.071
   -271111.676 8  21123656.222          51.000        2333.107
    157555.952 7  22204242.702          46.000       -1417.204
    237021.386 8  22658084.336          48.000       -2091.858
   -359463.501 7  23362647.172          44.000        3121.272
    355761.951 7  23890639.684          42.000       -3125.751
   -396896.802 7  23853905.458          43.000        3449.469
   -459837.927 6  25069389.259          37.000        4002.700
 17  2 22 10 26  3.0000000  0  9G30G07G05G02G09G13G06G28G20
   -136499.352 9  20321206.652          54.000        1135.058
    148817.069 8  21253328.756          51.000       -1327.128
   -273444.201 8  21123212.255          51.000        2332.023
    158973.742 7  22204512.275          46.000       -1418.394
    239113.693 8  22658482.324          48.000       -2092.628
   -362584.329 7  23362052.575          43.000        3120.416
    358888.272 7  23891234.372          42.000       -3126.739
   -400345.748 7  23853248.913          42.000        3448.401
   -463839.916 6  25068627.855          37.000        4001.698
 17  2 22 10 26  4.0000000  0  9G30G07G05G02G09G13G06G28G20
   -137633.975 9  20320991.021          54.000        1134.291
    150144.637 8  21253581.577          51.000       -1327.886
   -275775.798 8  21122768.777          51.000        2331.385
    160392.504 7  22204782.284          46.000       -1419.137
    241206.633 8  22658880.523          48.000       -2092.971
   -365704.518 7  23361459.130          43.000        3120.029
    362015.125 7  23891829.444          42.000       -3126.892
   -403794.126 7  23852592.263          42.000        3448.352
   -467841.377 6  25067866.521          37.000        4001.147
 17  2 22 10 26  5.0000000  0  9G30G07G05G02G09G13G06G28G20
   -138767.737 9  20320775.286          54.000        1133.079
    151472.906 8  21253834.537          52.000       -1328.990
   -278106.701 8  21122325.299          51.000        2330.265
    161812.007 7  22205052.275          46.000       -1420.139
    243299.975 8  22659278.808          48.000       -2093.768
   -368824.318 7  23360865.458          44.000        3119.291
    365142.321 7  23892424.219          42.000       -3127.649
   -407242.119 7  23851936.782          42.000        3447.369
   -471842.545 6  25067104.943          38.000        4000.639
 17  2 22 10 26  6.0000000  0  9G30G07G05G02G09G13G06G28G20
   -139900.248 9  20320559.602          54.000        1132.070
    152802.267 8  21254087.392          52.000       -1329.687
   -280436.517 8  21121881.628          51.000        2329.454
    163232.642 7  22205321.987          46.000       -1421.068
    245394.109 8  22659677.041          48.000       -2094.340
   -371943.296 7  23360271.942          44.000        3118.726
    368270.231 7  23893019.325          42.000       -3127.972
   -410689.374 7  23851280.236          42.000        3447.040
   -475843.023 6  25066343.661          38.000        4000.276
 17  2 22 10 26  7.0000000  0  9G30G07G05G02G09G13G06G28G20
   -141031.999 8  20320344.233          53.000        1131.334
    154132.243 8  21254340.509          51.000       -1330.350
   -282765.735 8  21121438.499          50.000        2328.791
    164653.933 7  22205592.310          46.000       -1421.635
    247488.546 8  22660075.640          48.000       -2094.641
   -375061.980 7  23359678.654          43.000        3118.339
    371398.380 6  23893614.606          41.000       -3128.278
   -414136.353 7  23850624.424          42.000        3446.759
   -479843.272 6  25065582.641          37.000        4000.215
 17  2 22 10 26  8.0000000  0  9G30G07G05G02G09G13G06G28G20
   -142162.908 8  20320128.934          53.000        1130.368
    155462.897 8  21254593.451          51.000       -1331.104
   -285094.285 8  21120995.212          50.000        2328.130
    166075.945 7  22205863.592          45.000       -1422.441
    249583.388 8  22660474.327          48.000       -2095.212
   -378180.268 7  23359084.528          43.000        3117.861
    374526.848 6  23894209.397          41.000       -3128.723
   -417582.974 7  23849968.803          42.000        3446.320
   -483843.213 6  25064821.691          37.000        3999.857
 17  2 22 10 26  9.0000000  0  9G30G07G05G02G09G13G06G28G20
   -143292.909 8  20319913.513          53.000        1129.459
    156794.306 8  21254846.743          51.000       -1331.964
   -287422.092 8  21120552.397          50.000        2327.301
    167498.739 7  22206134.247          46.000       -1423.225
    251678.663 8  22660872.647          48.000       -2095.754
   -381298.132 7  23358491.309          43.000        3117.718
    377655.691 6  23894804.696          41.000       -3129.156
   -421029.193 7  23849313.496          42.000        3445.886
   -487842.821 6  25064060.741          37.000        3999.255
 17  2 22 10 26 10.0000000  0  9G30G07G05G02G09G13G06G28G20
   -144422.563 8  20319698.702          53.000        1129.523
    158125.912 8  21255100.156          51.000       -1331.623
   -289749.712 8  21120109.477          50.000        2327.531
    168921.774 7  22206405.634          46.000       -1423.165
    253773.834 7  22661271.561          47.000       -2095.094
   -384416.040 7  23357898.736          43.000        3117.938
    380784.351 6  23895400.535          41.000       -3128.491
   -424475.557 7  23848657.283          42.000        3446.649
   -491842.594 6  25063299.774          37.000        3999.719
 17  2 22 10 26 11.0000000  0  9G30G07G05G02G09G13G06G28G20
   -145552.579 8  20319483.909          53.000        1130.149
    159457.003 8  21255353.605          51.000       -1330.889
   -292077.858 8  21119666.488          50.000        2328.372
    170344.312 7  22206676.289          46.000       -1422.308
    255868.184 7  22661669.811          47.000       -2094.005
   -387534.803 7  23357305.169          43.000        3119.389
    383912.119 6  23895995.973          41.000       -3127.283
   -427922.761 7  23848001.016          42.000        3447.442
   -495843.322 6  25062538.527          37.000        4001.356
 17  2 22 10 26 12.0000000  0  9G30G07G05G02G09G13G06G28G20
   -146683.363 9  20319268.854          54.000        1131.136
    160787.172 8  21255606.879          52.000       -1329.638
   -294406.940 8  21119223.516          51.000        2329.571
    171765.978 7  22206946.019          46.000       -1421.251
    257961.312 8  22662068.097          48.000       -2092.542
   -390654.757 7  23356711.724          44.000        3120.773
    387038.599 7  23896591.184          42.000       -3125.732
   -431371.235 7  23847345.152          43.000        3449.127
   -499845.320 6  25061777.298          38.000        4002.447
 17  2 22 10 26 13.0000000  0  9G30G07G05G02G09G13G06G28G20
   -147815.321 9  20319053.119          54.000        1132.428
    162116.004 8  21255859.944          52.000       -1328.279
   -296737.360 8  21118780.055          51.000        2330.958
    173186.344 7  22207216.603          46.000       -1419.771
    260052.801 8  22662465.981          48.000       -2090.731
   -393776.352 7  23356117.284          44.000        3122.423
    390163.357 7  23897186.465          42.000       -3123.852
   -434821.383 7  23846688.641          43.000        3450.763
   -503849.098 6  25061015.022          38.000        4004.702
 17  2 22 10 26 14.0000000  0  9G30G07G05G02G09G13G06G28G20
   -148948.985 9  20318837.506          54.000        1134.358
    163442.983 8  21256112.101          52.000       -1326.218
   -299069.659 8  21118336.402          51.000        2333.058
    174604.892 7  22207486.351          46.000       -1417.858
    262142.130 8  22662863.498          48.000       -2088.299
   -396900.085 7  23355523.228          44.000        3124.265
    393285.897 7  23897780.211          42.000       -3121.594
   -438273.728 7  23846031.991          42.000        3453.259
   -507855.093 6  25060252.100          38.000        4007.092
 17  2 22 10 26 15.0000000  0  9G30G07G05G02G09G13G06G28G20
   -150084.187 9  20318621.858          54.000        1136.449
    164768.272 8  21256364.363          51.000       -1324.000
   -301403.646 8  21117891.825          51.000        2335.320
    176021.784 7  22207755.818          46.000       -1415.608
    264229.478 8  22663261.051          48.000       -2085.849
   -400025.810 7  23354928.439          44.000        3127.036
    396406.364 7  23898373.921          42.000       -3119.135
   -441728.093 7  23845374.015          42.000        3455.811
   -511863.162 6  25059489.056          37.000        4009.160
 17  2 22 10 26 16.0000000  0  9G30G07G05G02G09G13G06G28G20
   -151220.998 9  20318405.442          54.000        1137.563
    166091.794 8  21256616.311          52.000       -1322.765
   -303739.412 8  21117447.404          51.000        2336.559
    177436.948 7  22208025.566          46.000       -1414.384
    266314.756 8  22663658.097          48.000       -2084.410
   -403153.606 7  23354332.969          44.000        3128.411
    399524.681 7  23898968.033          42.000       -3117.255
   -445184.567 7  23844716.301          42.000        3457.471
   -515873.440 6  25058725.872          37.000        4011.508
 17  2 22 10 26 17.0000000  0  9G30G07G05G02G09G13G06G28G20
   -152359.289 9  20318189.147          54.000        1139.138
    167413.680 8  21256867.927          51.000       -1320.963
   -306076.829 8  21117002.896          50.000        2338.392
    178850.515 7  22208294.440          46.000       -1412.695
    268398.094 7  22664054.393          47.000       -2082.358
   -406283.313 7  23353737.534          43.000        3130.423
    402640.998 7  23899561.097          42.000       -3115.259
   -448643.013 7  23844058.254          42.000        3459.503
   -519885.708 6  25057962.112          37.000        4013.175
 17  2 22 10 26 18.0000000  0  9G30G07G05G02G09G13G06G28G20
   -153499.075 8  20317971.702          53.000        1140.537
    168733.917 8  21257119.125          51.000       -1319.366
   -308415.899 8  21116557.289          50.000        2339.883
    180262.469 7  22208562.931          45.000       -1411.189
    270479.472 7  22664450.305          47.000       -2080.454
   -409414.997 7  23353141.157          43.000        3132.541
    405755.289 7  23900154.127          42.000       -3113.226
   -452103.443 7  23843399.807          42.000        3461.420
   -523900.023 6  25057198.789          37.000        4015.088
 17  2 22 10 26 19.0000000  0  9G30G07G05G02G09G13G06G28G20
   -154640.880 8  20317754.466          53.000        1142.694
    170051.986 8  21257369.764          51.000       -1317.220
   -310757.151 8  21116111.769          50.000        2342.230
    181672.283 7  22208831.194          45.000       -1408.853
    272558.384 7  22664846.043          47.000       -2077.866
   -412549.129 7  23352544.867          43.000        3134.986
    408867.037 6  23900746.337          41.000       -3110.736
   -455566.405 7  23842741.115          42.000        3464.044
   -527916.936 6  25056434.087          37.000        4018.159
 17  2 22 10 26 20.0000000  0  9G30G07G05G02G09G13G06G28G20
   -155784.979 9  20317537.003          54.000        1145.695
    171367.596 8  21257620.281          51.000       -1313.935
   -313100.859 8  21115666.040          50.000        2345.289
    183079.685 7  22209098.882          45.000       -1405.748
    274634.542 7  22665240.716          47.000       -2074.555
   -415686.007 7  23351948.002          43.000        3138.527
    411975.953 7  23901337.430          42.000       -3107.220
   -459032.124 7  23842081.551          42.000        3467.468
   -531936.683 6  25055669.002          37.000        4021.615
 17  2 22 10 26 21.0000000  0  9G30G07G05G02G09G13G06G28G20
   -156931.143 9  20317318.807          54.000        1146.980
    172680.993 8  21257870.239          51.000       -1312.458
   -315446.810 8  21115219.683          50.000        2346.979
    184484.902 7  22209366.291          45.000       -1404.283
    276708.180 7  22665635.302          47.000       -2072.603
   -418825.405 7  23351350.543          43.000        3140.445
    415082.276 7  23901929.011          42.000       -3105.200
   -462500.421 7  23841421.289          42.000        3469.562
   -535959.001 6  25054903.811          37.000        4023.272
 17  2 22 10 26 22.0000000  0  9G30G07G05G02G09G13G06G28G20
   -158079.180 8  20317099.861          53.000        1148.678
    173992.377 8  21258119.552          51.000       -1310.773
   -317794.773 8  21114772.278          50.000        2348.694
    185888.130 7  22209633.211          45.000       -1402.646
    278779.496 7  22666029.714          47.000       -2070.573
   -421967.096 7  23350752.822          43.000        3141.865
    418186.216 7  23902519.528          42.000       -3103.076
   -465971.057 7  23840760.869          42.000        3471.472
   -539983.766 6  25054138.202          37.000        4025.531
 17  2 22 10 26 23.0000000  0  9G30G07G05G02G09G13G06G28G20
   -159229.426 9  20316881.386          54.000        1151.350
    175301.378 8  21258369.040          52.000       -1307.800
   -320145.122 8  21114325.188          51.000        2351.596
    187289.025 7  22209899.608          46.000       -1399.869
    280848.135 8  22666423.305          48.000       -2067.419
   -425111.496 7  23350154.386          43.000        3145.619
    421287.392 7  23903109.208          42.000       -3099.768
   -469444.409 7  23840099.996          42.000        3474.799
   -544011.309 6  25053372.279          37.000        4029.062
 17  2 22 10 26 24.0000000  0  9G30G07G05G02G09G13G06G28G20
   -160381.883 9  20316661.672          54.000        1153.239
    176608.026 8  21258617.637          52.000       -1305.804
   -322497.839 8  21113877.644          51.000        2353.508
    188687.583 7  22210165.708          46.000       -1397.697
    282914.105 8  22666816.530          48.000       -2065.039
   -428258.556 7  23349555.723          43.000        3148.367
    424385.829 7  23903699.097          42.000       -3097.229
   -472920.457 7  23839438.548          42.000        3477.002
   -548041.594 6  25052605.326          37.000        4031.360
 17  2 22 10 26 25.0000000  0  9G30G07G05G02G09G13G06G28G20
   -161536.348 9  20316442.429          54.000        1155.292
    177912.510 8  21258865.886          52.000       -1303.607
   -324852.727 8  21113429.472          51.000        2355.782
    190084.033 7  22210431.581          46.000       -1395.597
    284977.616 8  22667209.231          48.000       -2062.391
   -431408.035 7  23348955.908          44.000        3150.466
    427481.748 7  23904288.479          42.000       -3094.849
   -476399.022 7  23838776.191          42.000        3479.559
   -552074.432 6  25051837.536          37.000        4033.923
 17  2 22 10 26 26.0000000  0  9G30G07G05G02G09G13G06G28G20
   -162692.851 9  20316222.366          54.000        1157.437
    179214.787 8  21259113.663          52.000       -1301.377
   -327209.828 8  21112980.863          51.000        2358.099
    191478.311 7  22210696.983          46.000       -1393.339
    287038.635 8  22667601.200          48.000       -2059.874
   -434560.025 7  23348356.879          44.000        3153.039
    430575.082 7  23904876.518          42.000       -3092.303
   -479880.108 7  23838114.062          42.000        3482.147
   -556109.872 6  25051069.832          37.000        4036.772
 17  2 22 10 26 27.0000000  0  9G30G07G05G02G09G13G06G28G20
   -163850.975 9  20316001.482          54.000        1158.851
    180515.292 8  21259361.004          52.000       -1299.571
   -329568.707 8  21112532.080          51.000        2359.816
    192870.855 7  22210961.879          46.000       -1391.728
    289097.583 8  22667992.679          48.000       -2058.024
   -437714.079 7  23347756.977          44.000        3155.086
    433666.252 7  23905464.452          42.000       -3089.984
   -483363.319 7  23837450.920          42.000        3484.357
   -560147.469 6  25050301.815          37.000        4038.581
 17  2 22 10 26 28.0000000  0  9G30G07G05G02G09G13G06G28G20
   -165010.285 9  20315781.437          54.000        1159.794
    181814.464 8  21259608.188          52.000       -1298.584
   -331928.929 8  21112082.599          51.000        2360.746
    194262.101 7  22211226.967          46.000       -1390.739
    291154.876 8  22668384.264          48.000       -2056.641
   -440869.783 7  23347155.539          44.000        3156.736
    436755.735 6  23906052.509          41.000       -3088.666
   -486848.199 7  23836788.005          42.000        3485.864
   -564186.792 6  25049533.029          37.000        4040.124
 17  2 22 10 26 29.0000000  0  9G30G07G05G02G09G13G06G28G20
   -166171.007 9  20315560.501          54.000        1161.265
    183112.065 8  21259855.546          52.000       -1296.999
   -334290.717 8  21111633.624          51.000        2362.294
    195651.817 7  22211491.723          46.000       -1389.248
    293210.310 8  22668775.307          48.000       -2054.633
   -444027.310 7  23346554.678          44.000        3158.117
    439843.273 6  23906639.972          41.000       -3086.694
   -490334.964 7  23836124.550          42.000        3487.451
   -568228.082 6  25048763.948          37.000        4042.207
 17  2 22 10 26 30.0000000  0  9G30G07G05G02G09G13G06G28G20
   -167332.729 9  20315339.164          54.000        1162.271
    184408.516 8  21260101.648          52.000       -1295.868
   -336653.680 8  21111184.055          51.000        2363.491
    197040.405 7  22211756.026          46.000       -1387.908
    295264.285 8  22669166.054          48.000       -2053.236
   -447186.321 7  23345953.851          43.000        3159.708
    442929.275 6  23907227.017          41.000       -3085.180
   -493823.241 7  23835460.466          42.000        3489.124
   -572270.921 6  25047994.726          37.000        4043.710
 17  2 22 10 26 31.0000000  0  9G30G07G05G02G09G13G06G28G20
   -168495.313 9  20315118.281          54.000        1163.496
    185703.939 8  21260348.413          52.000       -1294.458
   -339017.677 8  21110734.138          51.000        2364.976
    198428.013 7  22212019.613          46.000       -1386.704
    297316.932 8  22669557.220          48.000       -2051.535
   -450346.643 7  23345352.658          43.000        3161.219
    446013.871 6  23907813.433          41.000       -3083.209
   -497312.880 7  23834796.522          42.000        3490.814
   -576315.157 6  25047224.912          37.000        4045.440
 17  2 22 10 26 32.0000000  0  9G30G07G05G02G09G13G06G28G20
   -169658.999 8  20314896.874          53.000        1164.304
    186998.103 8  21260594.690          50.000       -1293.606
   -341382.929 8  21110283.802          50.000        2365.850
    199814.401 7  22212283.514          44.000       -1385.814
    299368.031 7  22669947.339          47.000       -2050.328
   -453508.516 7  23344751.011          43.000        3162.666
    449096.853 6  23908400.024          39.000       -3082.055
   -500804.094 6  23834131.932          41.000        3492.145
   -580361.077 6  25046454.818          36.000        4047.025
 17  2 22 10 26 33.0000000  0  9G30G07G05G02G09G13G06G28G20
   -170823.581 9  20314675.014          54.000        1164.402
    188291.221 8  21260840.583          51.000       -1293.202
   -343749.252 8  21109833.501          50.000        2366.257
    201199.778 7  22212546.962          45.000       -1385.556
    301417.774 7  22670337.126          47.000       -2049.727
   -456671.730 7  23344148.753          43.000        3163.255
    452178.410 6  23908985.882          40.000       -3081.512
   -504296.706 7  23833467.796          42.000        3492.688
   -584408.408 6  25045685.108          37.000        4047.568
 17  2 22 10 26 34.0000000  0  9G30G07G05G02G09G13G06G28G20
   -171988.225 9  20314453.293          54.000        1164.649
    189584.129 8  21261087.016          52.000       -1292.879
   -346115.785 8  21109383.461          51.000        2366.415
    202584.970 7  22212811.125          46.000       -1385.269
    303466.994 8  22670727.437          48.000       -2049.028
   -459835.449 7  23343546.687          43.000        3163.931
    455259.376 6  23909571.739          40.000       -3081.036
   -507789.866 7  23832803.241          42.000        3493.298
   -588456.371 6  25044914.333          37.000        4048.243
 17  2 22 10 26 35.0000000  0  9G30G07G05G02G09G13G06G28G20
   -173152.625 9  20314231.642          54.000        1164.094
    190877.108 8  21261332.892          52.000       -1293.126
   -348482.257 8  21108932.689          51.000        2366.364
    203970.264 7  22213074.712          46.000       -1385.346
    305515.999 8  22671117.276          48.000       -2049.009
   -462999.412 7  23342943.819          43.000        3163.893
    458340.022 6  23910158.121          40.000       -3080.633
   -511283.278 7  23832138.232          42.000        3493.439
   -592504.642 6  25044144.239          37.000        4048.526
 17  2 22 10 26 36.0000000  0  9G30G07G05G02G09G13G06G28G20
   -174316.668 9  20314009.956          54.000        1164.050
    192170.315 8  21261578.575          52.000       -1293.168
   -350848.508 8  21108482.841          51.000        2366.276
    205355.827 7  22213337.951          46.000       -1385.569
    307564.914 8  22671507.360          48.000       -2048.745
   -466163.418 7  23342342.015          43.000        3164.188
    461420.522 6  23910744.415          40.000       -3080.212
   -514776.823 7  23831473.154          42.000        3493.909
   -596553.052 6  25043373.482          37.000        4048.402
 17  2 22 10 26 37.0000000  0  9G30G07G05G02G09G13G06G28G20
   -175480.286 9  20313788.550          54.000        1163.283
    193463.772 8  21261824.782          52.000       -1293.740
   -353214.508 8  21108032.889          51.000        2365.752
    206741.669 7  22213601.468          46.000       -1386.174
    309613.787 8  22671897.426          48.000       -2048.830
   -469327.473 7  23341739.792          43.000        3163.684
    464500.899 6  23911331.093          40.000       -3080.377
   -518270.445 7  23830808.215          42.000        3493.585
   -600601.648 6  25042603.423          37.000        4048.664
 17  2 22 10 26 38.0000000  0  9G30G07G05G02G09G13G06G28G20
   -176643.564 9  20313567.300          54.000        1163.188
    194757.417 8  21262070.971          52.000       -1293.661
   -355580.328 8  21107582.448          51.000        2365.701
    208127.747 7  22213865.666          46.000       -1386.176
    311662.547 8  22672287.283          48.000       -2048.678
   -472491.637 7  23341137.639          43.000        3164.391
    467581.100 6  23911916.793          40.000       -3080.066
   -521764.198 7  23830143.520          42.000        3493.933
   -604650.418 6  25041832.404          37.000        4048.614
 17  2 22 10 26 39.0000000  0  9G30G07G05G02G09G13G06G28G20
   -177806.591 9  20313346.399          54.000        1162.991
    196051.157 8  21262317.282          52.000       -1293.691
   -357946.071 8  21107132.583          51.000        2365.793
    209513.944 7  22214128.921          46.000       -1386.111
    313711.097 8  22672677.402          48.000       -2048.450
   -475656.019 7  23340535.835          44.000        3164.285
    470661.000 6  23912503.122          40.000       -3079.907
   -525258.195 7  23829478.005          42.000        3494.269
   -608699.488 6  25041061.944          37.000        4049.021
 17  2 22 10 26 40.0000000  0  9G30G07G05G02G09G13G06G28G20
   -178969.778 9  20313124.975          54.000        1163.498
    197344.586 8  21262563.472          52.000       -1292.946
   -360312.132 8  21106681.793          51.000        2366.510
    210899.867 7  22214392.962          46.000       -1385.591
    315759.039 8  22673066.788          48.000       -2047.499
   -478821.003 7  23339934.153          43.000        3165.519
    473740.225 6  23913089.312          40.000       -3078.772
   -528752.834 7  23828813.171          42.000        3495.172
   -612749.276 6  25040291.344          37.000        4050.281
 17  2 22 10 26 41.0000000  0  9G30G07G05G02G09G13G06G28G20
   -180133.099 8  20312903.760          53.000        1163.324
    198637.734 8  21262809.434          51.000       -1293.114
   -362678.488 8  21106231.684          50.000        2366.486
    212285.525 7  22214657.090          45.000       -1385.499
    317806.381 7  22673456.261          47.000       -2047.104
   -481986.558 7  23339331.040          43.000        3165.431
    476818.796 6  23913675.815          39.000       -3078.332
   -532248.104 6  23828148.057          41.000        3495.551
   -616799.726 6  25039520.866          36.000        4050.571
 17  2 22 10 26 42.0000000  0  9G30G07G05G02G09G13G06G28G20
   -181296.826 9  20312682.109          54.000        1164.277
    199930.302 8  21263055.780          51.000       -1291.861
   -365045.422 8  21105781.261          50.000        2367.635
    213670.667 7  22214920.503          45.000       -1384.500
    319852.863 7  22673845.664          47.000       -2045.737
   -485152.994 7  23338728.887          43.000        3167.334
    479896.399 6  23914261.394          39.000       -3076.965
   -535744.255 6  23827482.595          41.000        3496.722
   -620851.150 6  25038749.708          36.000        4052.153
 17  2 22 10 26 43.0000000  0  9G30G07G05G02G09G13G06G28G20
   -182461.160 9  20312460.807          54.000        1164.719
    201222.115 8  21263301.534          51.000       -1291.213
   -367413.121 8  21105330.419          50.000        2368.183
    215055.083 7  22215184.073          45.000       -1383.917
    321898.278 7  22674234.788          47.000       -2044.723
   -488320.485 7  23338126.176          43.000        3168.429
    482972.876 6  23914846.239          39.000       -3075.934
   -539241.535 6  23826817.953          41.000        3497.821
   -624903.723 6  25037978.340          36.000        4053.401
 17  2 22 10 26 44.0000000  0  9G30G07G05G02G09G13G06G28G20
   -183626.062 9  20312239.017          54.000        1165.862
    202513.209 8  21263547.513          51.000       -1290.041
   -369781.551 8  21104879.681          50.000        2369.561
    216438.812 7  22215447.189          45.000       -1382.700
    323942.684 7  22674623.720          47.000       -2043.155
   -491488.960 7  23337523.063          43.000        3169.733
    486048.249 6  23915432.097          39.000       -3074.280
   -542739.838 6  23826152.333          41.000        3499.585
   -628957.401 6  25037207.304          36.000        4054.854
 17  2 22 10 26 45.0000000  0  9G30G07G05G02G09G13G06G28G20
   -184791.776 9  20312017.156          54.000        1166.044
    203803.338 8  21263792.569          52.000       -1289.733
   -372150.949 8  21104428.909          51.000        2369.818
    217821.611 7  22215710.322          46.000       -1382.412
    325985.808 8  22675013.106          48.000       -2042.451
   -494658.715 7  23336919.863          44.000        3170.420
    489122.304 6  23916016.699          40.000       -3073.633
   -546239.457 7  23825486.208          42.000        3500.232
   -633012.435 6  25036435.605          37.000        4055.768
 17  2 22 10 26 46.0000000  0  9G30G07G05G02G09G13G06G28G20
   -185958.246 9  20311795.366          54.000        1166.957
    205092.543 8  21264038.025          52.000       -1288.588
   -374521.278 8  21103977.822          51.000        2371.000
    219203.518 7  22215972.828          46.000       -1381.286
    328027.715 8  22675400.921          48.000       -2041.116
   -497829.667 7  23336316.645          44.000        3171.742
    492195.038 6  23916601.248          39.000       -3072.205
   -549740.318 7  23824819.891          42.000        3501.630
   -637068.786 6  25035663.155          37.000        4057.383
 17  2 22 10 26 47.0000000  0  9G30G07G05G02G09G13G06G28G20
   -187125.886 9  20311572.772          54.000        1167.985
    206380.435 8  21264282.940          52.000       -1287.497
   -376892.928 8  21103526.422          51.000        2372.118
    220584.148 7  22216236.031          46.000       -1380.311
    330067.995 8  22675789.260          48.000       -2039.630
   -501002.241 7  23335712.678          44.000        3173.011
    495266.071 6  23917185.797          39.000       -3070.392
   -553242.845 7  23824152.962          42.000        3503.119
   -641126.828 6  25034890.810          37.000        4058.423
 17  2 22 10 26 48.0000000  0  9G30G07G05G02G09G13G06G28G20
   -188294.184 9  20311350.284          54.000        1168.573
    207667.503 8  21264527.838          52.000       -1286.701
   -379265.409 8  21103075.126          51.000        2373.008
    221963.990 7  22216498.519          46.000       -1379.439
    332107.173 8  22676177.529          48.000       -2038.682
   -504175.922 7  23335108.814          44.000        3174.220
    498335.915 6  23917769.246          39.000       -3069.140
   -556746.514 7  23823486.069          42.000        3504.010
   -645186.097 6  25034118.587          37.000        4060.038
 17  2 22 10 26 49.0000000  0  9G30G07G05G02G09G13G06G28G20
   -189463.323 9  20311128.196          54.000        1169.826
    208953.567 8  21264772.457          52.000       -1285.332
   -381638.884 8  21102623.166          51.000        2374.288
    223342.886 7  22216760.640          46.000       -1378.281
    334145.043 8  22676565.152          48.000       -2037.139
   -507350.891 7  23334504.864          44.000        3175.818
    501404.403 6  23918353.149          39.000       -3067.590
   -560251.521 7  23822819.053          42.000        3505.835
   -649246.776 6  25033345.718          37.000        4062.198
 17  2 22 10 26 50.0000000  0  9G30G07G05G02G09G13G06G28G20
   -190633.111 9  20310905.673          54.000        1170.102
    210238.835 8  21265017.111          52.000       -1284.868
   -384013.166 8  21102171.417          51.000        2374.625
    224720.994 7  22217022.831          46.000       -1377.740
    336181.808 8  22676952.933          48.000       -2036.296
   -510526.968 7  23333900.495          44.000        3176.696
    504471.702 6  23918936.599          39.000       -3066.693
   -563757.672 7  23822152.195          42.000        3506.872
   -653308.604 6  25032572.518          37.000        4062.532
 17  2 22 10 26 51.0000000  0  9G30G07G05G02G09G13G06G28G20
   -191803.118 9  20310682.748          54.000        1170.142
    211523.726 8  21265261.799          52.000       -1284.703
   -386387.832 8  21101719.772          51.000        2374.784
    226098.766 7  22217284.778          46.000       -1377.589
    338217.896 8  22677340.626          48.000       -2035.722
   -513703.723 7  23333295.864          44.000        3177.285
    507538.240 6  23919520.468          39.000       -3065.997
   -567264.523 7  23821484.708          42.000        3507.306
   -657371.224 6  25031799.772          36.000        4063.155
 17  2 22 10 26 52.0000000  0  9G30G07G05G02G09G13G06G28G20
   -192973.757 9  20310460.067          54.000        1170.771
    212807.838 8  21265506.278          52.000       -1283.913
   -388763.281 8  21101267.551          51.000        2375.592
    227475.807 7  22217546.603          45.000       -1376.994
    340252.907 8  22677727.656          48.000       -2034.741
   -516881.527 7  23332691.093          44.000        3178.224
    510603.634 6  23920103.638          38.000       -3064.868
   -570772.482 7  23820817.710          42.000        3508.398
   -661434.989 6  25031026.328          36.000        4063.983
 17  2 22 10 26 53.0000000  0  9G30G07G05G02G09G13G06G28G20
   -194144.792 9  20310237.003          54.000        1171.556
    214091.383 8  21265750.426          51.000       -1282.868
   -391139.305 8  21100815.261          50.000        2376.716
    228852.298 7  22217809.090          45.000       -1375.842
    342287.046 8  22678114.668          48.000       -2033.312
   -520060.202 7  23332086.567          43.000        3179.562
    513668.102 6  23920687.088          38.000       -3063.898
   -574281.327 6  23820150.293          41.000        3509.637
   -665499.738 6  25030252.587          36.000        4065.699
 17  2 22 10 26 54.0000000  0  9G30G07G05G02G09G13G06G28G20
   -195316.356 9  20310014.531          54.000        1171.590
    215374.256 8  21265994.330          51.000       -1282.794
   -393516.004 8  21100363.215          50.000        2376.816
    230228.160 7  22218071.002          45.000       -1375.773
    344320.213 7  22678501.925          47.000       -2032.920
   -523239.852 7  23331481.308          43.000        3180.068
    516731.475 6  23921270.189          38.000       -3062.958
   -577791.194 6  23819481.952          41.000        3509.973
   -669565.527 5  25029479.230          35.000        4065.875
 17  2 22 10 26 55.0000000  0  9G30G07G05G02G09G13G06G28G20
   -196488.694 8  20309791.362          53.000        1172.876
    216656.174 8  21266238.599          51.000       -1281.122
   -395893.653 8  21099910.627          50.000        2378.392
    231603.115 7  22218332.914          44.000       -1374.240
    346352.127 7  22678888.589          47.000       -2030.991
   -526420.733 7  23330875.874          43.000        3181.676
    519793.550 6  23921852.591          37.000       -3061.059
   -581302.360 6  23818814.203          41.000        3512.183
   -673632.669 5  25028705.314          35.000        4067.627
 17  2 22 10 26 56.0000000  0  9G30G07G05G02G09G13G06G28G20
   -197662.328 9  20309568.088          54.000        1173.817
    217936.665 8  21266482.171          52.000       -1280.188
   -398272.751 8  21099458.023          51.000        2379.444
    232976.664 7  22218593.902          46.000       -1373.290
    348382.318 8  22679274.642          48.000       -2029.780
   -529603.346 7  23330270.196          44.000        3183.253
    522853.803 6  23922434.052          38.000       -3059.625
   -584815.262 7  23818145.984          42.000        3513.391
   -677701.657 6  25027930.666          36.000        4069.619
 17  2 22 10 26 57.0000000  0  9G30G07G05G02G09G13G06G28G20
   -198837.128 9  20309344.466          54.000        1175.380
    219215.820 8  21266725.673          52.000       -1278.512
   -400653.186 8  21099005.244          51.000        2381.169
    234348.917 7  22218855.779          46.000       -1371.634
    350410.858 8  22679660.799          48.000       -2027.527
   -532787.576 7  23329664.082          44.000        3185.068
    525912.373 6  23923015.983          38.000       -3057.611
   -588329.826 7  23817476.996          42.000        3515.393
   -681772.318 6  25027155.703          36.000        4071.322
 17  2 22 10 26 58.0000000  0  9G30G07G05G02G09G13G06G28G20
   -200013.077 9  20309120.232          54.000        1176.306
    220493.664 8  21266968.774          52.000       -1277.478
   -403034.924 8  21098551.993          51.000        2382.192
    235719.901 7  22219116.312          46.000       -1370.546
    352437.820 8  22680046.712          48.000       -2026.466
   -535973.410 7  23329058.317          44.000        3186.246
    528969.242 6  23923597.444          38.000       -3056.244
   -591846.037 7  23816807.922          42.000        3516.724
   -685844.712 6  25026380.985          36.000        4072.759
 17  2 22 10 26 59.0000000  0  9G30G07G05G02G09G13G06G28G20
   -201190.198 9  20308896.329          54.000        1177.587
    221770.189 8  21267211.769          52.000       -1276.076
   -405417.987 8  21098098.359          51.000        2383.579
    237089.615 7  22219377.142          46.000       -1369.232
    354463.135 8  22680431.892          48.000       -2024.462
   -539160.870 7  23328451.138          44.000        3188.264
    532024.394 6  23924179.095          38.000       -3054.266
   -595363.902 7  23816138.376          42.000        3518.628
   -689918.808 6  25025605.708          36.000        4074.917
